{
  "1586083442966": {
    "name": "Mustapha",
    "lat": 32.2832024,
    "lon": -9.2368571
  },
  "1586083561465": {
    "name": "Tokyo",
    "lat": 35.689487,
    "lon": 139.691706
  },
  "1586083633412": {
    "name": "London",
    "lat": 51.507351,
    "lon": -0.127758
  },
  "1586091174080": {
    "name": "Abdelouahab",
    "lat": 31.46274904124554,
    "lon": -5.436981924267458
  },
  "1586091349190": {
    "name": "Abdelouahab",
    "lat": 33.33855971273255,
    "lon": -5.526123046875001
  },
  "1586088023590": {
    "name": "Mona",
    "lat": 48.07440873478364,
    "lon": -1.6259765625
  },
  "1586090180087": {
    "name": "sara",
    "lat": 29.3694819,
    "lon": -9.7499425
  },
  "1586106823129": {
    "name": "Meryem",
    "lat": 32.285903150092956,
    "lon": -9.242573807857205
  },
  "1586114545115": {
    "name": "Fetah",
    "lat": 36.29741818650811,
    "lon": 5.976562500000001
  },
  "1586114726589": {
    "name": "Mehdi",
    "lat": 27.07624601860038,
    "lon": -13.183593750000002
  },
  "1586123031595": {
    "name": "Marina ♥️",
    "lat": 48.647324910093594,
    "lon": 2.4640695046306864
  },
  "1586127399835": {
    "name": "Sketch",
    "lat": 32.30605143250595,
    "lon": -9.235793832539953
  },
  "1586290571563": {
    "name": "meryem ",
    "lat": 30.4544303,
    "lon": -9.6346958
  },
  "1586296105477": {
    "name": "Imane",
    "lat": 32.27500981699856,
    "lon": -9.235982894897463
  },
  "1586590444317": {
    "name": "Mustapha",
    "lat": 32.2818212,
    "lon": -9.2404056
  },
  "1588943536667": {
    "name": "Mustapha",
    "lat": 32.295725448405506,
    "lon": -9.23354208469391
  },
  "1589332174249": {
    "name": "Youness",
    "lat": 32.2880079,
    "lon": -9.2387874
  },
  "1589332181510": {
    "name": "Youness",
    "lat": 32.2880079,
    "lon": -9.2387874
  },
  "1589332324959": {
    "name": "Youness",
    "lat": 32.296155769251385,
    "lon": -9.234613652079135
  },
  "1593565836057": {
    "name": "Tarik",
    "lat": 32.29672304428123,
    "lon": -9.243112206459047
  },
  "1593565876784": {
    "name": "Tarik",
    "lat": 32.29861334498982,
    "lon": -9.23757076263428
  },
  "1593565878133": {
    "name": "Tarik",
    "lat": 32.29861334498982,
    "lon": -9.23757076263428
  },
  "1593565878823": {
    "name": "Tarik",
    "lat": 32.29861334498982,
    "lon": -9.23757076263428
  },
  "1593565885973": {
    "name": "Tarik",
    "lat": 32.30932411541182,
    "lon": -9.227657318115236
  },
  "1594300149324": {
    "name": "Tensai",
    "lat": 32.294821367659964,
    "lon": -9.233708381652834
  },
  "1594300182727": {
    "name": "Tensai test",
    "lat": 32.2950044518243,
    "lon": -9.234942197799684
  }
}