{
  "1586083442966": {
    "name": "Mustapha",
    "lat": 32.2832024,
    "lon": -9.2368571
  },
  "1586083561465": {
    "name": "Tokyo",
    "lat": 35.689487,
    "lon": 139.691706
  },
  "1586083633412": {
    "name": "London",
    "lat": 51.507351,
    "lon": -0.127758
  },
  "1586091174080": {
    "name": "Abdelouahab",
    "lat": 31.46274904124554,
    "lon": -5.436981924267458
  },
  "1586091349190": {
    "name": "Abdelouahab",
    "lat": 33.33855971273255,
    "lon": -5.526123046875001
  },
  "1586088023590": {
    "name": "Mona",
    "lat": 48.07440873478364,
    "lon": -1.6259765625
  },
  "1586090180087": {
    "name": "sara",
    "lat": 29.3694819,
    "lon": -9.7499425
  },
  "1586106823129": {
    "name": "Meryem",
    "lat": 32.285903150092956,
    "lon": -9.242573807857205
  },
  "1586114545115": {
    "name": "Fetah",
    "lat": 36.29741818650811,
    "lon": 5.976562500000001
  },
  "1586114726589": {
    "name": "Mehdi",
    "lat": 27.07624601860038,
    "lon": -13.183593750000002
  },
  "1586123031595": {
    "name": "Marina ♥️",
    "lat": 48.647324910093594,
    "lon": 2.4640695046306864
  },
  "1586127399835": {
    "name": "Sketch",
    "lat": 32.30605143250595,
    "lon": -9.235793832539953
  },
  "1586290571563": {
    "name": "meryem ",
    "lat": 30.4544303,
    "lon": -9.6346958
  }
}