{
  "1586083442966": {
    "name": "Mustapha",
    "lat": 32.2832024,
    "lon": -9.2368571
  },
  "1586083561465": {
    "name": "Tokyo",
    "lat": 35.689487,
    "lon": 139.691706
  },
  "1586083633412": {
    "name": "London",
    "lat": 51.507351,
    "lon": -0.127758
  },
  "1586086153800": {
    "name": "Test",
    "lat": 26.723533628008123,
    "lon": -15.578613281250002
  },
  "1586086205253": {
    "name": "Test2",
    "lat": 32.2818248,
    "lon": -9.2403372
  },
  "1586091174080": {
    "name": "Abdelouahab",
    "lat": 31.46274904124554,
    "lon": -5.436981924267458
  },
  "1586091180155": {
    "name": "Abdelouahab",
    "lat": 31.46274904124554,
    "lon": -5.436981924267458
  },
  "1586091207093": {
    "name": "Abdelouahab",
    "lat": 31.46274904124554,
    "lon": -5.436981924267458
  },
  "1586091208783": {
    "name": "Abdelouahab",
    "lat": 31.46274904124554,
    "lon": -5.436981924267458
  },
  "1586091349190": {
    "name": "Abdelouahab",
    "lat": 33.33855971273255,
    "lon": -5.526123046875001
  },
  "1586088023590": {
    "name": "Mona",
    "lat": 48.07440873478364,
    "lon": -1.6259765625
  }
}